 [
        {
            "_id": "5a1e9a8c0d991120eabf1948",
            "cityName": "mumbai",
            "cityState": "maharashtra",
            "location": {
                "type": "Point",
                "coordinates": [
                    72.825833,
                    18.975
                ]
            }
        },
        {
            "_id": "5a1e9a8c0d991120eabf1949",
            "cityName": "delhi",
            "cityState": "delhi",
            "location": {
                "type": "Point",
                "coordinates": [
                    77.216667,
                    28.666667
                ]
            }
        },
        {
            "_id": "5a1e9a8c0d991120eabf194a",
            "cityName": "bangalore",
            "cityState": "karnataka",
            "location": {
                "type": "Point",
                "coordinates": [
                    77.583333,
                    12.983333
                ]
            }
        },
        {
            "_id": "5a1e9a8c0d991120eabf194b",
            "cityName": "hyderabad",
            "cityState": "telangana",
            "location": {
                "type": "Point",
                "coordinates": [
                    78.474444,
                    17.375278
                ]
            }
        },
        {
            "_id": "5a1e9a8c0d991120eabf194c",
            "cityName": "ahmedabad",
            "cityState": "gujarat",
            "location": {
                "type": "Point",
                "coordinates": [
                    72.616667,
                    23.033333
                ]
            }
        },
        {
            "_id": "5a1e9a8c0d991120eabf194d",
            "cityName": "chennai",
            "cityState": "tamil nadu",
            "location": {
                "type": "Point",
                "coordinates": [
                    80.283333,
                    13.083333
                ]
            }
        },
        {
            "_id": "5a1e9a8c0d991120eabf194e",
            "cityName": "kolkata",
            "cityState": "west bengal",
            "location": {
                "type": "Point",
                "coordinates": [
                    88.369722,
                    22.569722
                ]
            }
        },
        {
            "_id": "5a1e9a8c0d991120eabf194f",
            "cityName": "surat",
            "cityState": "gujarat",
            "location": {
                "type": "Point",
                "coordinates": [
                    72.9,
                    20.966667
                ]
            }
        },
        {
            "_id": "5a1e9a8c0d991120eabf1950",
            "cityName": "pune",
            "cityState": "maharashtra",
            "location": {
                "type": "Point",
                "coordinates": [
                    73.866667,
                    18.533333
                ]
            }
        },
        {
            "_id": "5a1e9a8c0d991120eabf1951",
            "cityName": "jaipur",
            "cityState": "rajasthan",
            "location": {
                "type": "Point",
                "coordinates": [
                    86.85,
                    24.583333
                ]
            }
        },
        {
            "_id": "5a1e9a8c0d991120eabf1952",
            "cityName": "lucknow",
            "cityState": "uttar pradesh",
            "location": {
                "type": "Point",
                "coordinates": [
                    80.916667,
                    26.85
                ]
            }
        },
        {
            "_id": "5a1e9a8c0d991120eabf1953",
            "cityName": "kanpur",
            "cityState": "uttar pradesh",
            "location": {
                "type": "Point",
                "coordinates": [
                    80.35,
                    26.466667
                ]
            }
        },
        {
            "_id": "5a1e9a8c0d991120eabf1954",
            "cityName": "nagpur",
            "cityState": "maharashtra",
            "location": {
                "type": "Point",
                "coordinates": [
                    82.3,
                    23.3
                ]
            }
        },
        {
            "_id": "5a1e9a8c0d991120eabf1955",
            "cityName": "indore",
            "cityState": "madhya pradesh",
            "location": {
                "type": "Point",
                "coordinates": [
                    75.833333,
                    22.716667
                ]
            }
        },
        {
            "_id": "5a1e9a8c0d991120eabf1956",
            "cityName": "thane",
            "cityState": "maharashtra",
            "location": {
                "type": "Point",
                "coordinates": [
                    72.966667,
                    19.2
                ]
            }
        },
        {
            "_id": "5a1e9a8c0d991120eabf1957",
            "cityName": "bhopal",
            "cityState": "madhya pradesh",
            "location": {
                "type": "Point",
                "coordinates": [
                    77.4,
                    23.266667
                ]
            }
        },
        {
            "_id": "5a1e9a8c0d991120eabf1958",
            "cityName": "visakhapatnam",
            "cityState": "andhra pradesh",
            "location": {
                "type": "Point",
                "coordinates": [
                    83.3,
                    17.7
                ]
            }
        },
        {
            "_id": "5a1e9a8c0d991120eabf1959",
            "cityName": "pimpri-chinchwad",
            "cityState": "maharashtra",
            "location": {
                "type": "Point",
                "coordinates": [
                    73.8009829,
                    18.6279288
                ]
            }
        },
        {
            "_id": "5a1e9a8c0d991120eabf195a",
            "cityName": "patna",
            "cityState": "bihar",
            "location": {
                "type": "Point",
                "coordinates": [
                    82.666667,
                    23.3
                ]
            }
        },
        {
            "_id": "5a1e9a8c0d991120eabf195b",
            "cityName": "vadodara",
            "cityState": "gujarat",
            "location": {
                "type": "Point",
                "coordinates": [
                    73.2,
                    22.3
                ]
            }
        },
        {
            "_id": "5a1e9a8c0d991120eabf195c",
            "cityName": "ghaziabad",
            "cityState": "uttar pradesh",
            "location": {
                "type": "Point",
                "coordinates": [
                    77.433333,
                    28.666667
                ]
            }
        },
        {
            "_id": "5a1e9a8c0d991120eabf195d",
            "cityName": "ludhiana",
            "cityState": "punjab",
            "location": {
                "type": "Point",
                "coordinates": [
                    75.85,
                    30.9
                ]
            }
        },
        {
            "_id": "5a1e9a8c0d991120eabf195e",
            "cityName": "agra",
            "cityState": "uttar pradesh",
            "location": {
                "type": "Point",
                "coordinates": [
                    78.016667,
                    27.183333
                ]
            }
        },
        {
            "_id": "5a1e9a8c0d991120eabf195f",
            "cityName": "nashik",
            "cityState": "maharashtra",
            "location": {
                "type": "Point",
                "coordinates": [
                    73.7903373,
                    20.0110224
                ]
            }
        },
        {
            "_id": "5a1e9a8c0d991120eabf1960",
            "cityName": "faridabad",
            "cityState": "haryana",
            "location": {
                "type": "Point",
                "coordinates": [
                    77.316667,
                    28.433333
                ]
            }
        },
        {
            "_id": "5a1e9a8c0d991120eabf1961",
            "cityName": "meerut",
            "cityState": "uttar pradesh",
            "location": {
                "type": "Point",
                "coordinates": [
                    77.7,
                    28.983333
                ]
            }
        },
        {
            "_id": "5a1e9a8c0d991120eabf1962",
            "cityName": "rajkot",
            "cityState": "gujarat",
            "location": {
                "type": "Point",
                "coordinates": [
                    75.5925,
                    25.731111
                ]
            }
        },
        {
            "_id": "5a1e9a8c0d991120eabf1963",
            "cityName": "kalyan-dombivali",
            "cityState": "maharashtra",
            "location": {
                "type": "Point",
                "coordinates": [
                    73.129889,
                    19.235433
                ]
            }
        },
        {
            "_id": "5a1e9a8c0d991120eabf1964",
            "cityName": "vasai-virar",
            "cityState": "maharashtra",
            "location": {
                "type": "Point",
                "coordinates": [
                    72.8224901,
                    19.4258788
                ]
            }
        },
        {
            "_id": "5a1e9a8c0d991120eabf1965",
            "cityName": "varanasi",
            "cityState": "uttar pradesh",
            "location": {
                "type": "Point",
                "coordinates": [
                    83,
                    25.333333
                ]
            }
        },
        {
            "_id": "5a1e9a8c0d991120eabf1966",
            "cityName": "srinagar",
            "cityState": "jammu and kashmir",
            "location": {
                "type": "Point",
                "coordinates": [
                    78.783333,
                    30.216667
                ]
            }
        },
        {
            "_id": "5a1e9a8c0d991120eabf1967",
            "cityName": "aurangabad",
            "cityState": "maharashtra",
            "location": {
                "type": "Point",
                "coordinates": [
                    79.9701,
                    26.596
                ]
            }
        },
        {
            "_id": "5a1e9a8c0d991120eabf1968",
            "cityName": "dhanbad",
            "cityState": "jharkhand",
            "location": {
                "type": "Point",
                "coordinates": [
                    86.45,
                    23.8
                ]
            }
        },
        {
            "_id": "5a1e9a8c0d991120eabf1969",
            "cityName": "amritsar",
            "cityState": "punjab",
            "location": {
                "type": "Point",
                "coordinates": [
                    74.865556,
                    31.633056
                ]
            }
        },
        {
            "_id": "5a1e9a8c0d991120eabf196a",
            "cityName": "navi mumbai",
            "cityState": "maharashtra",
            "location": {
                "type": "Point",
                "coordinates": [
                    73.029662,
                    19.033049
                ]
            }
        },
        {
            "_id": "5a1e9a8c0d991120eabf196b",
            "cityName": "allahabad",
            "cityState": "uttar pradesh",
            "location": {
                "type": "Point",
                "coordinates": [
                    81.85,
                    25.45
                ]
            }
        },
        {
            "_id": "5a1e9a8c0d991120eabf196c",
            "cityName": "ranchi",
            "cityState": "jharkhand",
            "location": {
                "type": "Point",
                "coordinates": [
                    85.333333,
                    23.35
                ]
            }
        },
        {
            "_id": "5a1e9a8c0d991120eabf196d",
            "cityName": "howrah",
            "cityState": "west bengal",
            "location": {
                "type": "Point",
                "coordinates": [
                    88.310278,
                    22.589167
                ]
            }
        },
        {
            "_id": "5a1e9a8c0d991120eabf196e",
            "cityName": "coimbatore",
            "cityState": "tamil nadu",
            "location": {
                "type": "Point",
                "coordinates": [
                    76.961389,
                    10.9925
                ]
            }
        },
        {
            "_id": "5a1e9a8c0d991120eabf196f",
            "cityName": "jabalpur",
            "cityState": "madhya pradesh",
            "location": {
                "type": "Point",
                "coordinates": [
                    79.95,
                    23.166667
                ]
            }
        },
        {
            "_id": "5a1e9a8c0d991120eabf1970",
            "cityName": "gwalior",
            "cityState": "madhya pradesh",
            "location": {
                "type": "Point",
                "coordinates": [
                    78.179167,
                    26.223611
                ]
            }
        },
        {
            "_id": "5a1e9a8c0d991120eabf1971",
            "cityName": "vijayawada",
            "cityState": "andhra pradesh",
            "location": {
                "type": "Point",
                "coordinates": [
                    80.616667,
                    16.516667
                ]
            }
        },
        {
            "_id": "5a1e9a8c0d991120eabf1972",
            "cityName": "jodhpur",
            "cityState": "rajasthan",
            "location": {
                "type": "Point",
                "coordinates": [
                    73.03,
                    26.286667
                ]
            }
        },
        {
            "_id": "5a1e9a8c0d991120eabf1973",
            "cityName": "madurai",
            "cityState": "tamil nadu",
            "location": {
                "type": "Point",
                "coordinates": [
                    78.116667,
                    9.933333
                ]
            }
        },
        {
            "_id": "5a1e9a8c0d991120eabf1974",
            "cityName": "raipur",
            "cityState": "chhattisgarh",
            "location": {
                "type": "Point",
                "coordinates": [
                    78.1,
                    30.316667
                ]
            }
        },
        {
            "_id": "5a1e9a8c0d991120eabf1975",
            "cityName": "kota",
            "cityState": "rajasthan",
            "location": {
                "type": "Point",
                "coordinates": [
                    78.671389,
                    29.825278
                ]
            }
        },
        {
            "_id": "5a1e9a8c0d991120eabf1976",
            "cityName": "guwahati",
            "cityState": "assam",
            "location": {
                "type": "Point",
                "coordinates": [
                    91.733333,
                    26.183333
                ]
            }
        },
        {
            "_id": "5a1e9a8c0d991120eabf1977",
            "cityName": "chandigarh",
            "cityState": "chandigarh",
            "location": {
                "type": "Point",
                "coordinates": [
                    76.7933,
                    30.7343
                ]
            }
        },
        {
            "_id": "5a1e9a8c0d991120eabf1978",
            "cityName": "solapur",
            "cityState": "maharashtra",
            "location": {
                "type": "Point",
                "coordinates": [
                    75.916667,
                    17.683333
                ]
            }
        },
        {
            "_id": "5a1e9a8c0d991120eabf1979",
            "cityName": "hubballi-dharwad",
            "cityState": "karnataka",
            "location": {
                "type": "Point",
                "coordinates": [
                    75.123955,
                    15.364708
                ]
            }
        },
        {
            "_id": "5a1e9a8c0d991120eabf197a",
            "cityName": "bareilly",
            "cityState": "uttar pradesh",
            "location": {
                "type": "Point",
                "coordinates": [
                    79.416667,
                    28.35
                ]
            }
        },
        {
            "_id": "5a1e9a8c0d991120eabf197b",
            "cityName": "moradabad",
            "cityState": "uttar pradesh",
            "location": {
                "type": "Point",
                "coordinates": [
                    78.783333,
                    28.833333
                ]
            }
        },
        {
            "_id": "5a1e9a8c0d991120eabf197c",
            "cityName": "mysore",
            "cityState": "karnataka",
            "location": {
                "type": "Point",
                "coordinates": [
                    76.649722,
                    12.307222
                ]
            }
        },
        {
            "_id": "5a1e9a8c0d991120eabf197d",
            "cityName": "gurgaon",
            "cityState": "haryana",
            "location": {
                "type": "Point",
                "coordinates": [
                    79.6766,
                    27.6928
                ]
            }
        },
        {
            "_id": "5a1e9a8c0d991120eabf197e",
            "cityName": "aligarh",
            "cityState": "uttar pradesh",
            "location": {
                "type": "Point",
                "coordinates": [
                    78.083333,
                    27.883333
                ]
            }
        },
        {
            "_id": "5a1e9a8c0d991120eabf197f",
            "cityName": "jalandhar",
            "cityState": "punjab",
            "location": {
                "type": "Point",
                "coordinates": [
                    78.433333,
                    23.9
                ]
            }
        },
        {
            "_id": "5a1e9a8c0d991120eabf1980",
            "cityName": "tiruchirappalli",
            "cityState": "tamil nadu",
            "location": {
                "type": "Point",
                "coordinates": [
                    78.685556,
                    10.805
                ]
            }
        },
        {
            "_id": "5a1e9a8c0d991120eabf1981",
            "cityName": "bhubaneswar",
            "cityState": "orissa",
            "location": {
                "type": "Point",
                "coordinates": [
                    85.833333,
                    20.233333
                ]
            }
        },
        {
            "_id": "5a1e9a8c0d991120eabf1982",
            "cityName": "salem",
            "cityState": "tamil nadu",
            "location": {
                "type": "Point",
                "coordinates": [
                    73.916667,
                    15.7
                ]
            }
        },
        {
            "_id": "5a1e9a8c0d991120eabf1983",
            "cityName": "mira-bhayandar",
            "cityState": "maharashtra",
            "location": {
                "type": "Point",
                "coordinates": [
                    72.85439,
                    19.295233
                ]
            }
        },
        {
            "_id": "5a1e9a8c0d991120eabf1984",
            "cityName": "warangal",
            "cityState": "telangana",
            "location": {
                "type": "Point",
                "coordinates": [
                    79.583333,
                    18
                ]
            }
        },
        {
            "_id": "5a1e9a8c0d991120eabf1985",
            "cityName": "thiruvananthapuram",
            "cityState": "kerala",
            "location": {
                "type": "Point",
                "coordinates": [
                    76.956944,
                    8.506944
                ]
            }
        },
        {
            "_id": "5a1e9a8c0d991120eabf1986",
            "cityName": "guntur",
            "cityState": "andhra pradesh",
            "location": {
                "type": "Point",
                "coordinates": [
                    80.45,
                    16.3
                ]
            }
        },
        {
            "_id": "5a1e9a8c0d991120eabf1987",
            "cityName": "bhiwandi",
            "cityState": "maharashtra",
            "location": {
                "type": "Point",
                "coordinates": [
                    73.066667,
                    19.3
                ]
            }
        },
        {
            "_id": "5a1e9a8c0d991120eabf1988",
            "cityName": "saharanpur",
            "cityState": "uttar pradesh",
            "location": {
                "type": "Point",
                "coordinates": [
                    77.55,
                    29.966667
                ]
            }
        },
        {
            "_id": "5a1e9a8c0d991120eabf1989",
            "cityName": "gorakhpur",
            "cityState": "uttar pradesh",
            "location": {
                "type": "Point",
                "coordinates": [
                    83.373889,
                    26.755
                ]
            }
        },
        {
            "_id": "5a1e9a8c0d991120eabf198a",
            "cityName": "bikaner",
            "cityState": "rajasthan",
            "location": {
                "type": "Point",
                "coordinates": [
                    73.3,
                    28.016667
                ]
            }
        },
        {
            "_id": "5a1e9a8c0d991120eabf198b",
            "cityName": "amravati",
            "cityState": "maharashtra",
            "location": {
                "type": "Point",
                "coordinates": [
                    77.75,
                    20.933333
                ]
            }
        },
        {
            "_id": "5a1e9a8c0d991120eabf198c",
            "cityName": "noida",
            "cityState": "uttar pradesh",
            "location": {
                "type": "Point",
                "coordinates": [
                    77.3547609,
                    28.5726442
                ]
            }
        },
        {
            "_id": "5a1e9a8c0d991120eabf198d",
            "cityName": "jamshedpur",
            "cityState": "jharkhand",
            "location": {
                "type": "Point",
                "coordinates": [
                    86.183333,
                    22.8
                ]
            }
        },
        {
            "_id": "5a1e9a8c0d991120eabf198e",
            "cityName": "bhilai",
            "cityState": "chhattisgarh",
            "location": {
                "type": "Point",
                "coordinates": [
                    81.433333,
                    21.216667
                ]
            }
        },
        {
            "_id": "5a1e9a8c0d991120eabf198f",
            "cityName": "cuttack",
            "cityState": "orissa",
            "location": {
                "type": "Point",
                "coordinates": [
                    85.833333,
                    20.5
                ]
            }
        },
        {
            "_id": "5a1e9a8c0d991120eabf1990",
            "cityName": "firozabad",
            "cityState": "uttar pradesh",
            "location": {
                "type": "Point",
                "coordinates": [
                    78.416667,
                    27.15
                ]
            }
        },
        {
            "_id": "5a1e9a8c0d991120eabf1991",
            "cityName": "kochi",
            "cityState": "kerala",
            "location": {
                "type": "Point",
                "coordinates": [
                    76.233333,
                    9.966667
                ]
            }
        },
        {
            "_id": "5a1e9a8c0d991120eabf1992",
            "cityName": "bhavnagar",
            "cityState": "gujarat",
            "location": {
                "type": "Point",
                "coordinates": [
                    72.15,
                    21.766667
                ]
            }
        },
        {
            "_id": "5a1e9a8c0d991120eabf1993",
            "cityName": "dehradun",
            "cityState": "uttarakhand",
            "location": {
                "type": "Point",
                "coordinates": [
                    78.0436813,
                    30.3255646
                ]
            }
        },
        {
            "_id": "5a1e9a8c0d991120eabf1994",
            "cityName": "durgapur",
            "cityState": "west bengal",
            "location": {
                "type": "Point",
                "coordinates": [
                    87.733333,
                    24.75
                ]
            }
        },
        {
            "_id": "5a1e9a8c0d991120eabf1995",
            "cityName": "asansol",
            "cityState": "west bengal",
            "location": {
                "type": "Point",
                "coordinates": [
                    87.283333,
                    24.233333
                ]
            }
        },
        {
            "_id": "5a1e9a8c0d991120eabf1996",
            "cityName": "nanded",
            "cityState": "maharashtra",
            "location": {
                "type": "Point",
                "coordinates": [
                    77.333333,
                    19.15
                ]
            }
        },
        {
            "_id": "5a1e9a8c0d991120eabf1997",
            "cityName": "kolhapur",
            "cityState": "maharashtra",
            "location": {
                "type": "Point",
                "coordinates": [
                    74.216667,
                    16.7
                ]
            }
        },
        {
            "_id": "5a1e9a8c0d991120eabf1998",
            "cityName": "ajmer",
            "cityState": "rajasthan",
            "location": {
                "type": "Point",
                "coordinates": [
                    74.633333,
                    26.45
                ]
            }
        },
        {
            "_id": "5a1e9a8c0d991120eabf1999",
            "cityName": "gulbarga",
            "cityState": "karnataka",
            "location": {
                "type": "Point",
                "coordinates": [
                    76.833333,
                    17.333333
                ]
            }
        },
        {
            "_id": "5a1e9a8c0d991120eabf199a",
            "cityName": "jamnagar",
            "cityState": "gujarat",
            "location": {
                "type": "Point",
                "coordinates": [
                    70.066667,
                    22.466667
                ]
            }
        },
        {
            "_id": "5a1e9a8c0d991120eabf199b",
            "cityName": "ujjain",
            "cityState": "madhya pradesh",
            "location": {
                "type": "Point",
                "coordinates": [
                    75.766667,
                    23.183333
                ]
            }
        },
        {
            "_id": "5a1e9a8c0d991120eabf199c",
            "cityName": "loni",
            "cityState": "uttar pradesh",
            "location": {
                "type": "Point",
                "coordinates": [
                    77.283333,
                    28.75
                ]
            }
        },
        {
            "_id": "5a1e9a8c0d991120eabf199d",
            "cityName": "siliguri",
            "cityState": "west bengal",
            "location": {
                "type": "Point",
                "coordinates": [
                    88.423611,
                    26.716111
                ]
            }
        },
        {
            "_id": "5a1e9a8c0d991120eabf199e",
            "cityName": "jhansi",
            "cityState": "uttar pradesh",
            "location": {
                "type": "Point",
                "coordinates": [
                    78.583333,
                    25.433333
                ]
            }
        },
        {
            "_id": "5a1e9a8c0d991120eabf199f",
            "cityName": "ulhasnagar",
            "cityState": "maharashtra",
            "location": {
                "type": "Point",
                "coordinates": [
                    73.15,
                    19.216667
                ]
            }
        },
        {
            "_id": "5a1e9a8c0d991120eabf19a0",
            "cityName": "nellore",
            "cityState": "andhra pradesh",
            "location": {
                "type": "Point",
                "coordinates": [
                    79.966667,
                    14.433333
                ]
            }
        },
        {
            "_id": "5a1e9a8c0d991120eabf19a1",
            "cityName": "jammu",
            "cityState": "jammu and kashmir",
            "location": {
                "type": "Point",
                "coordinates": [
                    74.866667,
                    32.733333
                ]
            }
        },
        {
            "_id": "5a1e9a8c0d991120eabf19a2",
            "cityName": "sangli-miraj & kupwad",
            "cityState": "maharashtra",
            "location": {
                "type": "Point",
                "coordinates": [
                    74.565518,
                    16.860446
                ]
            }
        },
        {
            "_id": "5a1e9a8c0d991120eabf19a3",
            "cityName": "belgaum",
            "cityState": "karnataka",
            "location": {
                "type": "Point",
                "coordinates": [
                    74.5,
                    15.866667
                ]
            }
        },
        {
            "_id": "5a1e9a8c0d991120eabf19a4",
            "cityName": "mangalore",
            "cityState": "karnataka",
            "location": {
                "type": "Point",
                "coordinates": [
                    74.835278,
                    12.863889
                ]
            }
        },
        {
            "_id": "5a1e9a8c0d991120eabf19a5",
            "cityName": "ambattur",
            "cityState": "tamil nadu",
            "location": {
                "type": "Point",
                "coordinates": [
                    80.088611,
                    13.076667
                ]
            }
        },
        {
            "_id": "5a1e9a8c0d991120eabf19a6",
            "cityName": "tirunelveli",
            "cityState": "tamil nadu",
            "location": {
                "type": "Point",
                "coordinates": [
                    77.7,
                    8.733333
                ]
            }
        },
        {
            "_id": "5a1e9a8c0d991120eabf19a7",
            "cityName": "malegaon",
            "cityState": "maharashtra",
            "location": {
                "type": "Point",
                "coordinates": [
                    74.533333,
                    20.55
                ]
            }
        },
        {
            "_id": "5a1e9a8c0d991120eabf19a8",
            "cityName": "gaya",
            "cityState": "bihar",
            "location": {
                "type": "Point",
                "coordinates": [
                    85,
                    24.783333
                ]
            }
        },
        {
            "_id": "5a1e9a8c0d991120eabf19a9",
            "cityName": "jalgaon",
            "cityState": "maharashtra",
            "location": {
                "type": "Point",
                "coordinates": [
                    76.534444,
                    21.048611
                ]
            }
        },
        {
            "_id": "5a1e9a8c0d991120eabf19aa",
            "cityName": "udaipur",
            "cityState": "rajasthan",
            "location": {
                "type": "Point",
                "coordinates": [
                    79.9216,
                    26.6978
                ]
            }
        },
        {
            "_id": "5a1e9a8c0d991120eabf19ab",
            "cityName": "maheshtala",
            "cityState": "west bengal",
            "location": {
                "type": "Point",
                "coordinates": [
                    88.2532182,
                    22.508621
                ]
            }
        },
        {
            "_id": "5a1e9a8c0d991120eabf19ac",
            "cityName": "tirupur",
            "cityState": "tamil nadu",
            "location": {
                "type": "Point",
                "coordinates": [
                    77.35,
                    11.1
                ]
            }
        },
        {
            "_id": "5a1e9a8c0d991120eabf19ad",
            "cityName": "davanagere",
            "cityState": "karnataka",
            "location": {
                "type": "Point",
                "coordinates": [
                    75.9289654951128,
                    14.4596984
                ]
            }
        },
        {
            "_id": "5a1e9a8c0d991120eabf19ae",
            "cityName": "kozhikode",
            "cityState": "kerala",
            "location": {
                "type": "Point",
                "coordinates": [
                    75.766667,
                    11.25
                ]
            }
        },
        {
            "_id": "5a1e9a8c0d991120eabf19af",
            "cityName": "akola",
            "cityState": "maharashtra",
            "location": {
                "type": "Point",
                "coordinates": [
                    74.2,
                    24.766667
                ]
            }
        },
        {
            "_id": "5a1e9a8c0d991120eabf19b0",
            "cityName": "kurnool",
            "cityState": "andhra pradesh",
            "location": {
                "type": "Point",
                "coordinates": [
                    78.05,
                    15.833333
                ]
            }
        },
        {
            "_id": "5a1e9a8c0d991120eabf19b1",
            "cityName": "rajpur sonarpur",
            "cityState": "west bengal",
            "location": {
                "type": "Point",
                "coordinates": [
                    88.391473,
                    22.449089
                ]
            }
        },
        {
            "_id": "5a1e9a8c0d991120eabf19b2",
            "cityName": "bokaro",
            "cityState": "jharkhand",
            "location": {
                "type": "Point",
                "coordinates": [
                    85.966667,
                    23.783333
                ]
            }
        },
        {
            "_id": "5a1e9a8c0d991120eabf19b3",
            "cityName": "south dumdum",
            "cityState": "west bengal",
            "location": {
                "type": "Point",
                "coordinates": [
                    88.4,
                    22.61
                ]
            }
        },
        {
            "_id": "5a1e9a8c0d991120eabf19b4",
            "cityName": "bellary",
            "cityState": "karnataka",
            "location": {
                "type": "Point",
                "coordinates": [
                    76.933333,
                    15.15
                ]
            }
        },
        {
            "_id": "5a1e9a8c0d991120eabf19b5",
            "cityName": "patiala",
            "cityState": "punjab",
            "location": {
                "type": "Point",
                "coordinates": [
                    76.400278,
                    30.326667
                ]
            }
        },
        {
            "_id": "5a1e9a8c0d991120eabf19b6",
            "cityName": "gopalpur",
            "cityState": "west bengal",
            "location": {
                "type": "Point",
                "coordinates": [
                    87.8,
                    24.833333
                ]
            }
        },
        {
            "_id": "5a1e9a8c0d991120eabf19b7",
            "cityName": "agartala",
            "cityState": "tripura",
            "location": {
                "type": "Point",
                "coordinates": [
                    91.275,
                    23.836389
                ]
            }
        },
        {
            "_id": "5a1e9a8c0d991120eabf19b8",
            "cityName": "bhagalpur",
            "cityState": "bihar",
            "location": {
                "type": "Point",
                "coordinates": [
                    83.872778,
                    26.169722
                ]
            }
        },
        {
            "_id": "5a1e9a8c0d991120eabf19b9",
            "cityName": "muzaffarnagar",
            "cityState": "uttar pradesh",
            "location": {
                "type": "Point",
                "coordinates": [
                    77.683333,
                    29.466667
                ]
            }
        },
        {
            "_id": "5a1e9a8c0d991120eabf19ba",
            "cityName": "bhatpara",
            "cityState": "west bengal",
            "location": {
                "type": "Point",
                "coordinates": [
                    88.408889,
                    22.871389
                ]
            }
        },
        {
            "_id": "5a1e9a8c0d991120eabf19bb",
            "cityName": "panihati",
            "cityState": "west bengal",
            "location": {
                "type": "Point",
                "coordinates": [
                    88.374444,
                    22.694167
                ]
            }
        },
        {
            "_id": "5a1e9a8c0d991120eabf19bc",
            "cityName": "latur",
            "cityState": "maharashtra",
            "location": {
                "type": "Point",
                "coordinates": [
                    76.583333,
                    18.4
                ]
            }
        },
        {
            "_id": "5a1e9a8c0d991120eabf19bd",
            "cityName": "dhule",
            "cityState": "maharashtra",
            "location": {
                "type": "Point",
                "coordinates": [
                    74.783333,
                    20.9
                ]
            }
        },
        {
            "_id": "5a1e9a8c0d991120eabf19be",
            "cityName": "rohtak",
            "cityState": "haryana",
            "location": {
                "type": "Point",
                "coordinates": [
                    76.566667,
                    28.9
                ]
            }
        },
        {
            "_id": "5a1e9a8c0d991120eabf19bf",
            "cityName": "korba",
            "cityState": "chhattisgarh",
            "location": {
                "type": "Point",
                "coordinates": [
                    82.683333,
                    22.35
                ]
            }
        },
        {
            "_id": "5a1e9a8c0d991120eabf19c0",
            "cityName": "bhilwara",
            "cityState": "rajasthan",
            "location": {
                "type": "Point",
                "coordinates": [
                    74.633333,
                    25.35
                ]
            }
        },
        {
            "_id": "5a1e9a8c0d991120eabf19c1",
            "cityName": "brahmapur",
            "cityState": "orissa",
            "location": {
                "type": "Point",
                "coordinates": [
                    84.783333,
                    19.316667
                ]
            }
        },
        {
            "_id": "5a1e9a8c0d991120eabf19c2",
            "cityName": "muzaffarpur",
            "cityState": "bihar",
            "location": {
                "type": "Point",
                "coordinates": [
                    85.4,
                    26.116667
                ]
            }
        },
        {
            "_id": "5a1e9a8c0d991120eabf19c3",
            "cityName": "ahmednagar",
            "cityState": "maharashtra",
            "location": {
                "type": "Point",
                "coordinates": [
                    74.733333,
                    19.083333
                ]
            }
        },
        {
            "_id": "5a1e9a8c0d991120eabf19c4",
            "cityName": "mathura",
            "cityState": "uttar pradesh",
            "location": {
                "type": "Point",
                "coordinates": [
                    77.683333,
                    27.5
                ]
            }
        },
        {
            "_id": "5a1e9a8c0d991120eabf19c5",
            "cityName": "kollam",
            "cityState": "kerala",
            "location": {
                "type": "Point",
                "coordinates": [
                    76.591667,
                    8.880556
                ]
            }
        },
        {
            "_id": "5a1e9a8c0d991120eabf19c6",
            "cityName": "avadi",
            "cityState": "tamil nadu",
            "location": {
                "type": "Point",
                "coordinates": [
                    80.101667,
                    13.115556
                ]
            }
        },
        {
            "_id": "5a1e9a8c0d991120eabf19c7",
            "cityName": "rajahmundry",
            "cityState": "andhra pradesh",
            "location": {
                "type": "Point",
                "coordinates": [
                    81.783333,
                    16.983333
                ]
            }
        },
        {
            "_id": "5a1e9a8c0d991120eabf19c8",
            "cityName": "kadapa",
            "cityState": "andhra pradesh",
            "location": {
                "type": "Point",
                "coordinates": [
                    78.816667,
                    14.466667
                ]
            }
        },
        {
            "_id": "5a1e9a8c0d991120eabf19c9",
            "cityName": "kamarhati",
            "cityState": "west bengal",
            "location": {
                "type": "Point",
                "coordinates": [
                    88.374722,
                    22.671111
                ]
            }
        },
        {
            "_id": "5a1e9a8c0d991120eabf19ca",
            "cityName": "bilaspur",
            "cityState": "chhattisgarh",
            "location": {
                "type": "Point",
                "coordinates": [
                    82.15,
                    22.083333
                ]
            }
        },
        {
            "_id": "5a1e9a8c0d991120eabf19cb",
            "cityName": "shahjahanpur",
            "cityState": "uttar pradesh",
            "location": {
                "type": "Point",
                "coordinates": [
                    79.916667,
                    27.883333
                ]
            }
        },
        {
            "_id": "5a1e9a8c0d991120eabf19cc",
            "cityName": "bijapur",
            "cityState": "karnataka",
            "location": {
                "type": "Point",
                "coordinates": [
                    80.816667,
                    18.8
                ]
            }
        },
        {
            "_id": "5a1e9a8c0d991120eabf19cd",
            "cityName": "rampur",
            "cityState": "uttar pradesh",
            "location": {
                "type": "Point",
                "coordinates": [
                    85.433333,
                    23.283333
                ]
            }
        },
        {
            "_id": "5a1e9a8c0d991120eabf19ce",
            "cityName": "shivamogga (shimoga)",
            "cityState": "karnataka",
            "location": {
                "type": "Point",
                "coordinates": [
                    75.568101,
                    13.92993
                ]
            }
        },
        {
            "_id": "5a1e9a8c0d991120eabf19cf",
            "cityName": "chandrapur",
            "cityState": "maharashtra",
            "location": {
                "type": "Point",
                "coordinates": [
                    83.883333,
                    19.6
                ]
            }
        },
        {
            "_id": "5a1e9a8c0d991120eabf19d0",
            "cityName": "junagadh",
            "cityState": "gujarat",
            "location": {
                "type": "Point",
                "coordinates": [
                    70.466667,
                    21.516667
                ]
            }
        },
        {
            "_id": "5a1e9a8c0d991120eabf19d1",
            "cityName": "thrissur",
            "cityState": "kerala",
            "location": {
                "type": "Point",
                "coordinates": [
                    76.216667,
                    10.516667
                ]
            }
        },
        {
            "_id": "5a1e9a8c0d991120eabf19d2",
            "cityName": "alwar",
            "cityState": "rajasthan",
            "location": {
                "type": "Point",
                "coordinates": [
                    76.6,
                    27.566667
                ]
            }
        },
        {
            "_id": "5a1e9a8c0d991120eabf19d3",
            "cityName": "bardhaman",
            "cityState": "west bengal",
            "location": {
                "type": "Point",
                "coordinates": [
                    87.869444,
                    23.240556
                ]
            }
        },
        {
            "_id": "5a1e9a8c0d991120eabf19d4",
            "cityName": "kulti",
            "cityState": "west bengal",
            "location": {
                "type": "Point",
                "coordinates": [
                    86.85,
                    23.733333
                ]
            }
        },
        {
            "_id": "5a1e9a8c0d991120eabf19d5",
            "cityName": "kakinada",
            "cityState": "andhra pradesh",
            "location": {
                "type": "Point",
                "coordinates": [
                    82.216667,
                    16.933333
                ]
            }
        },
        {
            "_id": "5a1e9a8c0d991120eabf19d6",
            "cityName": "nizamabad",
            "cityState": "telangana",
            "location": {
                "type": "Point",
                "coordinates": [
                    83.058889,
                    26.050556
                ]
            }
        },
        {
            "_id": "5a1e9a8c0d991120eabf19d7",
            "cityName": "parbhani",
            "cityState": "maharashtra",
            "location": {
                "type": "Point",
                "coordinates": [
                    76.783333,
                    19.266667
                ]
            }
        },
        {
            "_id": "5a1e9a8c0d991120eabf19d8",
            "cityName": "tumkur",
            "cityState": "karnataka",
            "location": {
                "type": "Point",
                "coordinates": [
                    77.101667,
                    13.342222
                ]
            }
        },
        {
            "_id": "5a1e9a8c0d991120eabf19d9",
            "cityName": "hisar",
            "cityState": "haryana",
            "location": {
                "type": "Point",
                "coordinates": [
                    75.716667,
                    29.166667
                ]
            }
        },
        {
            "_id": "5a1e9a8c0d991120eabf19da",
            "cityName": "ozhukarai",
            "cityState": "puducherry",
            "location": {
                "type": "Point",
                "coordinates": [
                    79.712141,
                    11.94888
                ]
            }
        },
        {
            "_id": "5a1e9a8c0d991120eabf19db",
            "cityName": "bihar sharif",
            "cityState": "bihar",
            "location": {
                "type": "Point",
                "coordinates": [
                    85.516667,
                    25.183333
                ]
            }
        },
        {
            "_id": "5a1e9a8c0d991120eabf19dc",
            "cityName": "panipat",
            "cityState": "haryana",
            "location": {
                "type": "Point",
                "coordinates": [
                    76.968056,
                    29.388889
                ]
            }
        },
        {
            "_id": "5a1e9a8c0d991120eabf19dd",
            "cityName": "darbhanga",
            "cityState": "bihar",
            "location": {
                "type": "Point",
                "coordinates": [
                    85.9,
                    26.166667
                ]
            }
        },
        {
            "_id": "5a1e9a8c0d991120eabf19de",
            "cityName": "bally",
            "cityState": "west bengal",
            "location": {
                "type": "Point",
                "coordinates": [
                    74.033333,
                    15.166667
                ]
            }
        },
        {
            "_id": "5a1e9a8c0d991120eabf19df",
            "cityName": "aizawl",
            "cityState": "mizoram",
            "location": {
                "type": "Point",
                "coordinates": [
                    92.7175,
                    23.724444
                ]
            }
        },
        {
            "_id": "5a1e9a8c0d991120eabf19e0",
            "cityName": "dewas",
            "cityState": "madhya pradesh",
            "location": {
                "type": "Point",
                "coordinates": [
                    76.066667,
                    22.966667
                ]
            }
        },
        {
            "_id": "5a1e9a8c0d991120eabf19e1",
            "cityName": "ichalkaranji",
            "cityState": "maharashtra",
            "location": {
                "type": "Point",
                "coordinates": [
                    74.466667,
                    16.7
                ]
            }
        },
        {
            "_id": "5a1e9a8c0d991120eabf19e2",
            "cityName": "tirupati",
            "cityState": "andhra pradesh",
            "location": {
                "type": "Point",
                "coordinates": [
                    79.416667,
                    13.65
                ]
            }
        },
        {
            "_id": "5a1e9a8c0d991120eabf19e3",
            "cityName": "karnal",
            "cityState": "haryana",
            "location": {
                "type": "Point",
                "coordinates": [
                    76.983333,
                    29.683333
                ]
            }
        },
        {
            "_id": "5a1e9a8c0d991120eabf19e4",
            "cityName": "bathinda",
            "cityState": "punjab",
            "location": {
                "type": "Point",
                "coordinates": [
                    74.9485371,
                    30.2081076
                ]
            }
        },
        {
            "_id": "5a1e9a8c0d991120eabf19e5",
            "cityName": "jalna",
            "cityState": "maharashtra",
            "location": {
                "type": "Point",
                "coordinates": [
                    79.2137,
                    24.0988
                ]
            }
        },
        {
            "_id": "5a1e9a8c0d991120eabf19e6",
            "cityName": "barasat",
            "cityState": "west bengal",
            "location": {
                "type": "Point",
                "coordinates": [
                    88.441111,
                    22.684167
                ]
            }
        },
        {
            "_id": "5a1e9a8c0d991120eabf19e7",
            "cityName": "kirari suleman nagar",
            "cityState": "delhi",
            "location": {
                "type": "Point",
                "coordinates": [
                    77.047811,
                    28.701638
                ]
            }
        },
        {
            "_id": "5a1e9a8c0d991120eabf19e8",
            "cityName": "purnia",
            "cityState": "bihar",
            "location": {
                "type": "Point",
                "coordinates": [
                    87.133333,
                    24.516667
                ]
            }
        },
        {
            "_id": "5a1e9a8c0d991120eabf19e9",
            "cityName": "satna",
            "cityState": "madhya pradesh",
            "location": {
                "type": "Point",
                "coordinates": [
                    80.833333,
                    24.583333
                ]
            }
        },
        {
            "_id": "5a1e9a8c0d991120eabf19ea",
            "cityName": "mau",
            "cityState": "uttar pradesh",
            "location": {
                "type": "Point",
                "coordinates": [
                    83.561111,
                    25.941667
                ]
            }
        },
        {
            "_id": "5a1e9a8c0d991120eabf19eb",
            "cityName": "sonipat",
            "cityState": "haryana",
            "location": {
                "type": "Point",
                "coordinates": [
                    77.016667,
                    28.983333
                ]
            }
        },
        {
            "_id": "5a1e9a8c0d991120eabf19ec",
            "cityName": "farrukhabad",
            "cityState": "uttar pradesh",
            "location": {
                "type": "Point",
                "coordinates": [
                    79.566667,
                    27.4
                ]
            }
        },
        {
            "_id": "5a1e9a8c0d991120eabf19ed",
            "cityName": "sagar",
            "cityState": "madhya pradesh",
            "location": {
                "type": "Point",
                "coordinates": [
                    82,
                    22.066667
                ]
            }
        },
        {
            "_id": "5a1e9a8c0d991120eabf19ee",
            "cityName": "rourkela",
            "cityState": "orissa",
            "location": {
                "type": "Point",
                "coordinates": [
                    84.883333,
                    22.2
                ]
            }
        },
        {
            "_id": "5a1e9a8c0d991120eabf19ef",
            "cityName": "durg",
            "cityState": "chhattisgarh",
            "location": {
                "type": "Point",
                "coordinates": [
                    81.283333,
                    21.183333
                ]
            }
        },
        {
            "_id": "5a1e9a8c0d991120eabf19f0",
            "cityName": "imphal",
            "cityState": "manipur",
            "location": {
                "type": "Point",
                "coordinates": [
                    93.95,
                    24.816667
                ]
            }
        },
        {
            "_id": "5a1e9a8c0d991120eabf19f1",
            "cityName": "ratlam",
            "cityState": "madhya pradesh",
            "location": {
                "type": "Point",
                "coordinates": [
                    75.066667,
                    23.316667
                ]
            }
        },
        {
            "_id": "5a1e9a8c0d991120eabf19f2",
            "cityName": "hapur",
            "cityState": "uttar pradesh",
            "location": {
                "type": "Point",
                "coordinates": [
                    77.783333,
                    28.716667
                ]
            }
        },
        {
            "_id": "5a1e9a8c0d991120eabf19f3",
            "cityName": "anantapur",
            "cityState": "andhra pradesh",
            "location": {
                "type": "Point",
                "coordinates": [
                    79.5342,
                    26.829
                ]
            }
        },
        {
            "_id": "5a1e9a8c0d991120eabf19f4",
            "cityName": "arrah",
            "cityState": "bihar",
            "location": {
                "type": "Point",
                "coordinates": [
                    84.666667,
                    25.566667
                ]
            }
        },
        {
            "_id": "5a1e9a8c0d991120eabf19f5",
            "cityName": "karimnagar",
            "cityState": "telangana",
            "location": {
                "type": "Point",
                "coordinates": [
                    79.2581,
                    27.7974
                ]
            }
        },
        {
            "_id": "5a1e9a8c0d991120eabf19f6",
            "cityName": "etawah",
            "cityState": "uttar pradesh",
            "location": {
                "type": "Point",
                "coordinates": [
                    79.0239,
                    26.7769
                ]
            }
        },
        {
            "_id": "5a1e9a8c0d991120eabf19f7",
            "cityName": "ambernath",
            "cityState": "maharashtra",
            "location": {
                "type": "Point",
                "coordinates": [
                    73.2004771,
                    19.2015607
                ]
            }
        },
        {
            "_id": "5a1e9a8c0d991120eabf19f8",
            "cityName": "north dumdum",
            "cityState": "west bengal",
            "location": {
                "type": "Point",
                "coordinates": [
                    88.41907,
                    22.65208
                ]
            }
        },
        {
            "_id": "5a1e9a8c0d991120eabf19f9",
            "cityName": "bharatpur",
            "cityState": "rajasthan",
            "location": {
                "type": "Point",
                "coordinates": [
                    79.3921,
                    27.1268
                ]
            }
        },
        {
            "_id": "5a1e9a8c0d991120eabf19fa",
            "cityName": "begusarai",
            "cityState": "bihar",
            "location": {
                "type": "Point",
                "coordinates": [
                    86.133333,
                    25.416667
                ]
            }
        },
        {
            "_id": "5a1e9a8c0d991120eabf19fb",
            "cityName": "new delhi",
            "cityState": "delhi",
            "location": {
                "type": "Point",
                "coordinates": [
                    77.2,
                    28.6
                ]
            }
        },
        {
            "_id": "5a1e9a8c0d991120eabf19fc",
            "cityName": "gandhidham",
            "cityState": "gujarat",
            "location": {
                "type": "Point",
                "coordinates": [
                    70.133333,
                    23.083333
                ]
            }
        },
        {
            "_id": "5a1e9a8c0d991120eabf19fd",
            "cityName": "baranagar",
            "cityState": "west bengal",
            "location": {
                "type": "Point",
                "coordinates": [
                    88.365278,
                    22.643333
                ]
            }
        },
        {
            "_id": "5a1e9a8c0d991120eabf19fe",
            "cityName": "tiruvottiyur",
            "cityState": "tamil nadu",
            "location": {
                "type": "Point",
                "coordinates": [
                    80.304167,
                    13.157778
                ]
            }
        },
        {
            "_id": "5a1e9a8c0d991120eabf19ff",
            "cityName": "puducherry",
            "cityState": "puducherry",
            "location": {
                "type": "Point",
                "coordinates": [
                    79.83,
                    11.93
                ]
            }
        },
        {
            "_id": "5a1e9a8c0d991120eabf1a00",
            "cityName": "sikar",
            "cityState": "rajasthan",
            "location": {
                "type": "Point",
                "coordinates": [
                    75.15,
                    27.616667
                ]
            }
        },
        {
            "_id": "5a1e9a8c0d991120eabf1a01",
            "cityName": "thoothukudi",
            "cityState": "tamil nadu",
            "location": {
                "type": "Point",
                "coordinates": [
                    78.133333,
                    8.783333
                ]
            }
        },
        {
            "_id": "5a1e9a8c0d991120eabf1a02",
            "cityName": "rewa",
            "cityState": "madhya pradesh",
            "location": {
                "type": "Point",
                "coordinates": [
                    79.0231,
                    27.9161
                ]
            }
        },
        {
            "_id": "5a1e9a8c0d991120eabf1a03",
            "cityName": "mirzapur",
            "cityState": "uttar pradesh",
            "location": {
                "type": "Point",
                "coordinates": [
                    82.583333,
                    25.15
                ]
            }
        },
        {
            "_id": "5a1e9a8c0d991120eabf1a04",
            "cityName": "raichur",
            "cityState": "karnataka",
            "location": {
                "type": "Point",
                "coordinates": [
                    77.366667,
                    16.2
                ]
            }
        },
        {
            "_id": "5a1e9a8c0d991120eabf1a05",
            "cityName": "pali",
            "cityState": "rajasthan",
            "location": {
                "type": "Point",
                "coordinates": [
                    78.543889,
                    29.85
                ]
            }
        },
        {
            "_id": "5a1e9a8c0d991120eabf1a06",
            "cityName": "khammam",
            "cityState": "telangana",
            "location": {
                "type": "Point",
                "coordinates": [
                    80.15,
                    17.25
                ]
            }
        },
        {
            "_id": "5a1e9a8c0d991120eabf1a07",
            "cityName": "vizianagaram",
            "cityState": "andhra pradesh",
            "location": {
                "type": "Point",
                "coordinates": [
                    83.416667,
                    18.116667
                ]
            }
        },
        {
            "_id": "5a1e9a8c0d991120eabf1a08",
            "cityName": "katihar",
            "cityState": "bihar",
            "location": {
                "type": "Point",
                "coordinates": [
                    87.583333,
                    25.533333
                ]
            }
        },
        {
            "_id": "5a1e9a8c0d991120eabf1a09",
            "cityName": "haridwar",
            "cityState": "uttarakhand",
            "location": {
                "type": "Point",
                "coordinates": [
                    78.166667,
                    29.966667
                ]
            }
        },
        {
            "_id": "5a1e9a8c0d991120eabf1a0a",
            "cityName": "sri ganganagar",
            "cityState": "rajasthan",
            "location": {
                "type": "Point",
                "coordinates": [
                    73.883333,
                    29.916667
                ]
            }
        },
        {
            "_id": "5a1e9a8c0d991120eabf1a0b",
            "cityName": "karawal nagar",
            "cityState": "delhi",
            "location": {
                "type": "Point",
                "coordinates": [
                    77.276926,
                    28.72831
                ]
            }
        },
        {
            "_id": "5a1e9a8c0d991120eabf1a0c",
            "cityName": "nagercoil",
            "cityState": "tamil nadu",
            "location": {
                "type": "Point",
                "coordinates": [
                    77.431389,
                    8.193889
                ]
            }
        },
        {
            "_id": "5a1e9a8c0d991120eabf1a0d",
            "cityName": "mango",
            "cityState": "jharkhand",
            "location": {
                "type": "Point",
                "coordinates": [
                    79.1055442299247,
                    13.22526165
                ]
            }
        },
        {
            "_id": "5a1e9a8c0d991120eabf1a0e",
            "cityName": "bulandshahr",
            "cityState": "uttar pradesh",
            "location": {
                "type": "Point",
                "coordinates": [
                    77.85,
                    28.4
                ]
            }
        },
        {
            "_id": "5a1e9a8c0d991120eabf1a0f",
            "cityName": "thanjavur",
            "cityState": "tamil nadu",
            "location": {
                "type": "Point",
                "coordinates": [
                    79.15,
                    10.8
                ]
            }
        }
    ]